[{"id":"p7","title":"Northern Lights","image":{"src":"northern-lights.jpg","alt":"Dazzling display of the Northern Lights in a starry sky."},"lat":64.9631,"lon":-19.0208},{"id":"p17","title":"Machu Picchu","image":{"src":"machu-picchu.jpg","alt":"The historic Incan citadel of Machu Picchu illuminated by the morning sun."},"lat":-13.1631,"lon":-72.545},{"id":"p6","title":"Amazon Rainforest Canopy","image":{"src":"rainforest.jpg","alt":"Lush canopy of a rainforest, teeming with life."},"lat":-3.4653,"lon":-62.2159},{"id":"p9","title":"Great Barrier Reef","image":{"src":"great-barrier-reef.jpg","alt":"Vibrant coral formations of the Great Barrier Reef underwater."},"lat":-18.2871,"lon":147.6992},{"id":"p18","title":"Amazon River","image":{"src":"amazon-river.jpg","alt":"Navigating the waters of the Amazon River, surrounded by dense rainforest."},"lat":-3.4653,"lon":-58.38},{"id":"p1","title":"Forest Waterfall","image":{"src":"forest-waterfall.jpg","alt":"A tranquil forest with a cascading waterfall amidst greenery."},"lat":44.5588,"lon":-80.344},{"id":"p12","title":"Venetian Canals","image":{"src":"venetian-canals.jpg","alt":"Glistening waters of the Venetian canals as gondolas glide by at sunset."},"lat":45.4408,"lon":12.3155},{"id":"p5","title":"Ancient Grecian Ruins","image":{"src":"ruins.jpg","alt":"Historic ruins standing tall against the backdrop of the Grecian sky."},"lat":37.9715,"lon":23.7257}]